"name","lat","lon","geometry","url"
"Diakonie Hasenbergl - Kinderkrippe Karlsteinstraße (München)",11.5828116,48.1941637,c(11.5828116, 48.1941637, 0),"https://www.muenchen.de/rathaus/Serviceangebote/familie/kinderbetreuung/corona.html"
"Katholischer Kindergarten Heilige Dreifaltigkeit (Essen)",7.11016,51.44676,c(7.11016, 51.44676, 0),"https://www.radioessen.de/artikel/corona-in-essen-kita-betroffen-kinder-in-quarantaene-699169.html"
"Elly & Stoffl Nymphenburg GmbH (München)",11.5119715,48.1616576,c(11.5119715, 48.1616576, 0),"https://www.muenchen.de/rathaus/Serviceangebote/familie/kinderbetreuung/corona.html"
"Infanterix Schwabing (München)",11.5796985,48.1769686,c(11.5796985, 48.1769686, 0),"https://www.muenchen.de/rathaus/Serviceangebote/familie/kinderbetreuung/corona.html"
"Wichtel Akademie München Obersendling",11.5104367,48.092451,c(11.5104367, 48.092451, 0),"https://www.muenchen.de/rathaus/Serviceangebote/familie/kinderbetreuung/corona.html"
"Großstadtgeschwister GmbH",11.5217132,48.1786205,c(11.5217132, 48.1786205, 0),"https://www.muenchen.de/rathaus/Serviceangebote/familie/kinderbetreuung/corona.html"
"Betriebskindergarten der Firma EDE Kita Concept",7.26523,51.28234,c(7.26523, 51.28234, 0),"https://www.wz.de/nrw/wuppertal/mehrere-covid-19-faelle-an-wuppertaler-schulen-und-kitas_aid-53018309"
"Städt. Kindertagesstätte",7.2307685,51.2844307,c(7.2307685, 51.2844307, 0),"https://www.t-online.de/region/wuppertal/news/id_88358442/coronavirus-in-wuppertal-kita-wegen-corona-fall-geschlossen.html"
"Tageseinrichtung für Kinder Metzmachersrath",7.1306946,51.2807932,c(7.1306946, 51.2807932, 0),"https://www.radiowuppertal.de/artikel/kita-wegen-corona-fall-vorsorglich-geschlossen-667109.html"
"Kita Tesche",7.0734073,51.2404384,c(7.0734073, 51.2404384, 0),"https://wuppertal-total.de/stadtleben/kita-tesche-wegen-corona-geschlossen/"
"AWO Kita Kinderland",13.0997828,52.3730347,c(13.0997828, 52.3730347, 0),"https://www.pnn.de/potsdam/coronafaelle-in-potsdam-zwei-neue-infektionen-in-schlaatzer-kita/26052992.html"
"Elbkinder Kita",9.9911,53.5934,c(9.9911, 53.5934, 0),"https://www.mopo.de/hamburg/kind-positiv-getestet-corona-fall-in-hamburger-kita-37150666"
"Kita Schulstraße",8.69776,50.01619,c(8.69776, 50.01619, 0),"https://www.op-online.de/region/dreieich/dreieich-corona-fall-kita-schulstrasse-kind-familie-quarantaene-isolation-90014706.html"
"PariSozial Kita Kastanie",8.7442882,52.0837229,c(8.7442882, 52.0837229, 0),"https://www.radiolippe.de/nachrichten/lippe/detailansicht/corona-naechste-kita-in-lippe-geschlossen.html"
"Kita Alsenbande",7.0273706,51.1785759,c(7.0273706, 51.1785759, 0),"https://rp-online.de/nrw/staedte/solingen/solingen-erzieherin-in-kita-positiv-getestet_aid-52319941"
"Hort der Eisenhart-Schule",13.0615097,52.4042946,c(13.0615097, 52.4042946, 0),"https://www.pnn.de/potsdam/zum-schulstart-in-potsdam-corona-fall-im-hort-der-eisenhart-schule/26080332.html"
"evang. Kita Rauchstraße",9.0148699,51.38308,c(9.0148699, 51.38308, 0),"https://www.wlz-online.de/waldeck/bad-arolsen/18-bad-arolser-kindergartenkinder-in-quarantaene-90020360.html"
"Kita Zwergenland, Hümpfershausen",9.0905654,51.9490273,c(9.0905654, 51.9490273, 0),"https://www.lra-sm.de/?p=22632"
"Kindergarten Wirbelwind",6.5550911,51.4885003,c(6.5550911, 51.4885003, 0),"https://www.niederrhein-nachrichten.de/2020/08/10/corona-fall-in-einer-kita-der-stadt-kamp-lintfrot/"
"Städt. Kindergarten Förstchen",6.99925,51.10075,c(6.99925, 51.10075, 0),"https://www.ksta.de/region/leverkusen/leichlingen/corona-in-leichlingen-corona-fall-in-der-staedtischen-kita-foerstchen-36389380"
"Städtischer Kindergarten Dorlar",8.23646,51.2186,c(8.23646, 51.2186, 0),"https://www.wp.de/staedte/meschede-und-umland/corona-ausbruch-im-kindergarten-in-dorlar-id230137032.html"
"AWO Kindertageseinrichtung Schrobenhausen",11.2552306,48.5576917,c(11.2552306, 48.5576917, 0),"https://presse-augsburg.de/schrobenhausen-corona-faelle-in-kita-reihentest-durchgefuehrt/587531/"
"Kindergarten Heilig Blut (Dinslaken)",6.7248353,51.5694846,c(6.7248353, 51.5694846, 0),"https://rp-online.de/nrw/staedte/dinslaken/corona-fall-in-kita-heilig-blut-in-dinslaken_aid-52681339"
"KiTa Jüchen ""Villa Kunterbunt""",6.5011736,51.1001358,c(6.5011736, 51.1001358, 0),"https://www.klartext-ne.de/2020/08/11/juechen-erzieherin-positiv-auf-das-corona-virus-getestet-gruppen-in-der-kita-geschlossen/"
"Kita in Dülken",6.3413263,51.2541777,c(6.3413263, 51.2541777, 0),"https://www.meine-woche.de/suche/corona+kita+f%C3%A4lle/"
"Kita in Velbert",7.0426775,51.3370703,c(7.0426775, 51.3370703, 0),"https://www.waz.de/staedte/velbert/velberter-kita-erzieherin-positiv-auf-corona-getestet-id230135060.html"
"Kita Düren",6.481105,50.8029513,c(6.481105, 50.8029513, 0),"https://www.radiorur.de/artikel/immer-mehr-positive-testergebnisse-679343.html"
"Kita in Essen-Werden",6.9979944,51.3868823,c(6.9979944, 51.3868823, 0),"https://www.radioessen.de/artikel/corona-fall-in-kita-in-essen-680425.html?_gl=1*qplubb*_ga*QUIzM2gxZ0NTeVp4V2gtUnBRc0p5R0V5VnZoM2FlSm1GOGd3OG9zLUIzMkplRk9nRFJfVmtjQ29YZG8wOE0wdg.."
"Kindertagesstätte Hokido (Dortmund)",7.4145606,51.4808762,c(7.4145606, 51.4808762, 0),"https://www.ruhrnachrichten.de/dortmund/24-positive-corona-testergebnisse-am-dienstag-in-dortmund-1545422.html"
"Kita in Wittenburg",11.0831993,53.5058658,c(11.0831993, 53.5058658, 0),"https://www.ndr.de/nachrichten/mecklenburg-vorpommern/Wittenburg-Kind-aus-Kita-mit-Coronavirus-infiziert,coronavirus2882.html"
"Katholische Kindertageseinrichtung Brede Familienzentrum NRW",9.18163,51.71961,c(9.18163, 51.71961, 0),"https://www.nw.de/lokal/kreis_hoexter/brakel/22841462_Coronafall-in-Brakeler-Kindergarten-betroffene-Gruppe-in-Quarantaene.html"
"Haus der Kinder Pinzberg",11.10497,49.68966,c(11.10497, 49.68966, 0),"https://www.infranken.de/lk/forchheim/wieder-ein-corona-fall-in-kita-im-kreis-forchheim-was-nach-der-schliessung-passiert-art-5052083"
"Kita in Coerde",7.648434,51.991479,c(7.648434, 51.991479, 0),"https://www.dein-ms.de/news/allgemein/erste-kita-gruppen-in-quarantaene"
"Kindergarten Kuschel & Carlos Schwabing",11.5824652,48.1659474,c(11.5824652, 48.1659474, 0),"https://www.muenchen.de/rathaus/Serviceangebote/familie/kinderbetreuung/corona.html"
"Kita Am Hedernfeld 42",11.46927,48.1208,c(11.46927, 48.1208, 0),"https://www.muenchen.de/rathaus/Serviceangebote/familie/kinderbetreuung/corona.html"
"Kinderkrippe Elly & Stoffl Laim GmbH",11.5200578,48.1406324,c(11.5200578, 48.1406324, 0),"https://www.muenchen.de/rathaus/Serviceangebote/familie/kinderbetreuung/corona.html"
"Joki Kinderbetreuung Obermenzing",11.47401,48.15491,c(11.47401, 48.15491, 0),"https://www.muenchen.de/rathaus/Serviceangebote/familie/kinderbetreuung/corona.html"
"Kibiku Vogelloh GmbH, MAN Löwenkinder",11.4666709,48.2140182,c(11.4666709, 48.2140182, 0),"https://www.muenchen.de/rathaus/Serviceangebote/familie/kinderbetreuung/corona.html"
"KiTa Wunderland (Halver)",7.5628499,51.1894591,c(7.5628499, 51.1894591, 0),"https://www.come-on.de/volmetal/halver/coronavirus-halver-faelle-zwei-schulen-einer-kita-13858246.html"
"Kath. Kindergarten St. Marien Langendreer",7.2994,51.47288,c(7.2994, 51.47288, 0),"https://www.waz.de/staedte/bochum/coronavirus-in-bochum-aktuelle-infektionszahlen-covid-19-in-schule-und-kita-statistik-und-tote-id228688473.html"
"Katholischer Kindergarten St.Marien",7.0101847,51.5254998,c(7.0101847, 51.5254998, 0),"https://www.lokalkompass.de/essen-borbeck/c-ratgeber/positiver-corona-fall-im-kollegium-der-elisabethschule-in-frohnhausen-und-in-karnaper-kita_a1418025"
"Meldorf",9.0754881,54.0899822,c(9.0754881, 54.0899822, 0),"https://www.ndr.de/nachrichten/schleswig-holstein/coronavirus/Corona-Mehrere-Schulklassen-in-Quarantaene,schule2296.html"
"Kath. Kindertageseinrichtung Bruder Konrad",8.4180776,51.8815422,c(8.4180776, 51.8815422, 0),"https://www.radioguetersloh.de/nachrichten/kreis-guetersloh/detailansicht/corona-fall-in-spexarder-kita-regelbetrieb-findet-ab-montag-statt.html"
"Hort „Pfiffikus“ der Grundschule ""Wilhelm-Ostwald""",12.72547,51.21757,c(12.72547, 51.21757, 0),"https://www.mdr.de/sachsen/leipzig/grimma-oschatz-wurzen/corona-hort-grimma-100.html"
"Kindergarten Treuschnitz",11.38195,50.39722,c(11.38195, 50.39722, 0),"https://www.br.de/nachrichten/bayern/corona-infektion-kindergarten-in-teuschnitz-geschlossen,S5IKYpN"
"Waldkindergarten ""Die Glückspilze"" Bad Holzhausen",8.5532092,52.2864784,c(8.5532092, 52.2864784, 0),"https://www.mt.de/regionales/Erzieherin-positiv-getestet-Waldkindergarten-in-Bad-Holzhausen-vorsorglich-geschlossen-22840863.amp.html?__twitter_impression=true"
"ungenante Kita in Borken",6.8594477,51.8482714,c(6.8594477, 51.8482714, 0),"https://www.borkenerzeitung.de/lokales/borken/Laborbefund-nach-Corona-Testung-in-Borkener-Kita-Ein-weiteres-Kind-infiziert-297000.html"
"Städtischer Kindergarten Krefeld",6.58853,51.31015,c(6.58853, 51.31015, 0),"https://www.welleniederrhein.de/artikel/corona-krefelder-kita-geschlossen-683387.html"
"ungenannte Kita Herne",7.2009147,51.5368948,c(7.2009147, 51.5368948, 0),"https://www.radioherne.de/artikel/herner-kita-kind-hat-corona-682945.html"
"Hort Friedi",12.25065,51.83539,c(12.25065, 51.83539, 0),"https://verwaltung.dessau-rosslau.de/stadt-buerger/neuigkeiten/detailseite/article/aktuelle-lage-corona-virus.html"
"Evangelischer Kindergarten Tabrock",8.1158726,51.5799133,c(8.1158726, 51.5799133, 0),"https://www.soester-anzeiger.de/lokales/kreis-soest/corona-kreis-soest-schule-quarantaene-faelle-test-jahrgangsstufe-bayern-panne-coronavirus-13859062.html"
"ungenannte Kita in Uetersen",9.6763338,53.6872441,c(9.6763338, 53.6872441, 0),"https://www.sueddeutsche.de/gesundheit/gesundheit-elmshorn-corona-fall-in-kita-mehr-als-40-kinder-in-quarantaene-dpa.urn-newsml-dpa-com-20090101-200814-99-170747"
"Power Pänz 2001 e.V.",7.1659117,50.7128029,c(7.1659117, 50.7128029, 0),"https://ga.de/bonn/stadt-bonn/corona-an-kita-in-bonn-einrichtung-geschlossen-erzieherin-infiziert_aid-52772409?Echobox=1597418384&utm_medium=Social&utm_source=Twitter"
"Krippe/Außenstelle Kita Wilhelmsstraße",6.59012,51.30926,c(6.59012, 51.30926, 0),"https://www.wz.de/nrw/krefeld/wegen-corona-fall-krefelder-kita-an-der-wilhelmstrasse-geschlossen_aid-52767145"
"namenlose Kita in Werne",7.631431,51.665041,c(7.631431, 51.665041, 0),"https://www.halternerzeitung.de/nachrichten/nach-testpanne-in-bayern-familien-in-werne-und-luenen-wussten-nichts-von-infektion-plus-1546307.html"
"Kindergarten Dom und Meer",9.0740824,54.0815138,c(9.0740824, 54.0815138, 0),"https://www.boyens-medien.de/artikel/dithmarschen/corona-faelle-in-kita-und-zwei-schulen-347692.html"
"IKJG Initiative für Kinder-Jugend-und Gemeinwesenarbeit in Ockershausen e.V.",8.74093,50.79004,c(8.74093, 50.79004, 0),"https://www.op-marburg.de/Marburg/Corona-Faelle-Zwei-Gruppen-in-Kitas-geschlossen"
"AWO Kindertagesstätte ""Haus der kleinen Strolche""",11.736087,53.0041858,c(11.736087, 53.0041858, 0),"https://www.maz-online.de/Lokales/Prignitz/Perleberg/Corona-in-Wittenberge-Kinder-positiv-getestet-Schule-und-Kita-geschlossen"
"Kindergarten Kunterbunt",8.700574,50.8626745,c(8.700574, 50.8626745, 0),"https://www.op-marburg.de/Marburg/Corona-Faelle-Zwei-Gruppen-in-Kitas-geschlossen"
"unbenannte Kita in Oberhausen",6.8637765,51.4963341,c(6.8637765, 51.4963341, 0),"https://www.waz.de/staedte/oberhausen/kitakind-in-oberhausen-positiv-auf-das-coronavirus-getestet-id230188674.html"
"unbenannte Kita in Hüllhorst",8.67466,52.2701609,c(8.67466, 52.2701609, 0),"https://www.nw.de/lokal/kreis_minden_luebbecke/pr_oldendorf/22844298_Corona-Faelle-an-mehreren-Schulen-und-Kitas-im-Kreis.html"
"Städtischer Kindergarten Die kleinen Strolche",8.639929,51.3744074,c(8.639929, 51.3744074, 0),"https://www.wp.de/staedte/altkreis-brilon/corona-fall-in-brilon-hoppecke-54-kinder-unter-quarantaene-id230201910.html"
"KiTa & Hort Lindenspatzen",14.5364119,52.2408166,c(14.5364119, 52.2408166, 0),"https://www.moz.de/landkreise/oder-spree/beeskow/artikel2/dg/0/1/1820142/"
"Integrierte Kindertagesstätte Verein zur Förderung der Waldorfpädagogik e.V.",8.0167783,50.8730176,c(8.0167783, 50.8730176, 0),"https://www.waz.de/staedte/siegerland/corona-in-siegen-fuenf-klassen-koennen-wieder-in-die-schule-id230192194.html"
"Katholischer Kindergarten St. Peter (Duisburg)",6.7132646,51.4054683,c(6.7132646, 51.4054683, 0),"https://rp-online.de/nrw/staedte/duisburg/duisburg-fuenf-schulen-melden-corona-faelle-kita-geschlossen_aid-52837795"
"Kindergarten Zwergenland (Dortmund)",7.4883356,51.5283,c(7.4883356, 51.5283, 0),"https://www.ruhrnachrichten.de/dortmund/kita-in-dortmund-bleibt-nach-corona-verdachtsfall-geschlossen-1547442.html"
"Kinderstube",7.4401233,51.5067653,c(7.4401233, 51.5067653, 0),"https://www.ruhrnachrichten.de/dortmund/kita-in-dortmund-bleibt-nach-corona-verdachtsfall-geschlossen-1547442.html"
"FABIDO-Kita Erbpachtstraße (Dortmund)",7.55828,51.50131,c(7.55828, 51.50131, 0),"https://www.ruhrnachrichten.de/dortmund/kita-in-dortmund-bleibt-nach-corona-verdachtsfall-geschlossen-1547442.html"
"Kindergarten Spatzennest (Saulheim)",8.13497,49.86564,c(8.13497, 49.86564, 0),"https://www.allgemeine-zeitung.de/lokales/alzey/alzey/corona-falle-an-kitas-und-schulen-im-alzeyer-land_22121695"
"Kindergarten Nach dem alten Schloß",8.1936426,49.7862594,c(8.1936426, 49.7862594, 0),"https://www.allgemeine-zeitung.de/lokales/alzey/alzey/corona-falle-an-kitas-und-schulen-im-alzeyer-land_22121695"
"Montessori Kindergarten Im Gustav Heinemann Haus",7.04378,50.75283,c(7.04378, 50.75283, 0),"https://ga.de/bonn/stadt-bonn/coronavirus-in-kita-in-bonn-erzieherin-positiv-getestet-montessori-kindergarten-betroffen_aid-52856995"
"Rasselbande gGmbH",9.43681,48.65316,c(9.43681, 48.65316, 0),"https://www.teckbote.de/startseite_artikel,-kirchheimer-kita-meldet-corona-fall-_arid,253778.html"
"Caritas-Kita ""Arche Noah"" (Wülfrath)",7.0265699,51.2826639,c(7.0265699, 51.2826639, 0),"https://www.supertipp-online.de/2020/08/17/wuelfrath-corona-fall-im-caritas-kindergarten-arche-noah/"
"namenlose Kita in Bedburg",6.5711524,50.989348,c(6.5711524, 50.989348, 0),"https://www.radioerft.de/artikel/rhein-erft-coronafaelle-in-schulen-und-einer-kita-685934.html"
"Marburger Eltern-Kind-Verein e.V.",8.7791518,50.816359,c(8.7791518, 50.816359, 0),"https://www.mittelhessen.de/lokales/marburg-biedenkopf/marburg/quarantane-fur-die-quarknasen-in-marburg_22124053"
"Lebenshilfe Kleve - Kita Lebensquelle",6.060751,51.786385,c(6.060751, 51.786385, 0),"https://www.niederrhein-nachrichten.de/2020/08/17/aktueller-stand-der-corona-infektionen-im-kreis-kleve-40/"
"Kita Pfützenhüpfer (Lüdenscheid)",7.6433583,51.2244161,c(7.6433583, 51.2244161, 0),"https://www.come-on.de/luedenscheid/gesundheitsamt-bestaetigt-corona-fall-kita-luedenscheid-13862081.html?=djkfjdfjgdfjgldfkgfjgl&fbclid=IwAR0ZN3lisrqb95YLxsORQKMPzknJsk0C9KHfT4z8DZY38ILq2mvub1mPWRk"
"Städtische Kindertageseinrichtung Sterntaler",6.7556244,50.9027684,c(6.7556244, 50.9027684, 0),"https://www.radioerft.de/artikel/frechen-coronafall-in-kita-in-grefrath-688226.html"
"Elterninitiative Kindergarten Moers-Schwafheim e.V.",6.64963,51.42242,c(6.64963, 51.42242, 0),"https://rp-online.de/nrw/staedte/moers/corona-moers-kita-bis-september-geschlossen-erzieherin-positiv-getestet_aid-52849987"
"AWO-Kita Heidestraße",8.76478,52.08165,c(8.76478, 52.08165, 0),"https://www.radiolippe.de/nachrichten/lippe/detailansicht/neue-coronafaelle-in-detmolder-berufskolleg-und-bad-salzufler-kita.html"
"Kath. Kindergarten St. Cyriakus",6.9284546,51.5210695,c(6.9284546, 51.5210695, 0),"https://www.waz.de/staedte/bottrop/erzieherin-mit-corona-infiziert-bottroper-kita-geschlossen-id230206842.html"
"Kindergarten Leinenborn (Bad Sobernheim)",7.671041,49.7886694,c(7.671041, 49.7886694, 0),"https://www.rhein-zeitung.de/region/aus-den-lokalredaktionen/oeffentlicher-anzeiger_artikel,-kitakind-in-sobernheim-positiv-auf-corona-getestet-gesundheitsamt-kreuznach-schickt-erzieherinnen-un-_arid,2153906.html"
"Kindertagesstätte Kunterbunt",8.7326235,50.1752714,c(8.7326235, 50.1752714, 0),"https://www.wetteraukreis.de/aktuelles/pressemitteilungen/detail/news/coronafall-in-kita-kunterbunt-in-bad-vilbel/"
"AWO Kindertagesstätte und Familienzentrum Bachstraße, Lotte",7.92414,52.27667,c(7.92414, 52.27667, 0),"https://www.noz.de/lokales/lotte/artikel/2108776/corona-ausbruch-in-lotter-kita-80-kinder-in-quarantaene?amp&__twitter_impression=true"
"Evangelischer Kindergarten Liebenau",9.2865805,51.4960051,c(9.2865805, 51.4960051, 0),"keine Internetquelle"
"AWO Kindertagesstätte Glück Auf",6.62322,50.58147,c(6.62322, 50.58147, 0),"https://www.ksta.de/region/euskirchen-eifel/mechernich/-covid-19-fall-in-mechernicher-kita-152-kinder-und-39-erzieherinnen-in-quarantaene-37226538"
"AWO Kindertagesstätte und Familienzentrum Regenbogen",6.6508599,50.5889579,c(6.6508599, 50.5889579, 0),"https://www.ksta.de/region/euskirchen-eifel/mechernich/-covid-19-fall-in-mechernicher-kita-152-kinder-und-39-erzieherinnen-in-quarantaene-37226538"
"Katholische Kindertagesstätte St. Marien",9.1210794,51.4068425,c(9.1210794, 51.4068425, 0),"keine Internetquelle"
"Kita Parkstraße",8.5655931,49.9713557,c(8.5655931, 49.9713557, 0),"https://www.hessenschau.de/panorama/coronavirus--unfallzahlen-sinken-auf-rekordtief--homberger-schulklasse-in-quarantaene--167-neuinfektionen-kein-todesfall-,corona-hessen-ticker-358.html"
"Städt. Kita Rigalsche Wiese (Bonn)",7.15769,50.67803,c(7.15769, 50.67803, 0),"https://ga.de/bonn/bad-godesberg/coronavirus-in-bonn-erzieherin-in-bad-godesberg-infiziert_aid-52895845?utm_source=twitter&utm_medium=referral&utm_campaign=share"
"Familienzentrum Arche Noah - Hünsborn",7.8938251,50.937655,c(7.8938251, 50.937655, 0),"https://www.wp.de/staedte/kreis-olpe/wenden-kita-arche-noah-wegen-corona-fall-geschlossen-id230229520.html"
"Kindertagesstätte Sonnenhaus",6.6842396,51.0340487,c(6.6842396, 51.0340487, 0),"https://www.wa.de/hamm/coronavirus-hamm-schueler-infiziert-stadt-stellt-sich-ueber-1500-tests-13863907.html"
"Städt. Kindertageseinrichtung Märklinstraße (Krefeld)",6.5625439,51.3189127,c(6.5625439, 51.3189127, 0),"https://rp-online.de/nrw/staedte/krefeld/krefeld-fuenf-neue-corona-faelle-vier-erkrankte-auf-intensivstation_aid-52900133"
"Städt. Familienzentrum KiKo Herten",7.111274,51.6128284,c(7.111274, 51.6128284, 0),"https://www.24vest.de/herten/herten-corona-massentest-kita-kiko-langenbochum-drk-erzieher-kinder-90028291.html"
"Städtische Kindertageseinrichtung„Die Rappelkiste"" (Hilden)",6.93247,51.17365,c(6.93247, 51.17365, 0),"https://www.hilden.de/sv_hilden/Unsere%20Stadt/Aktuelles/Informationen%20zum%20Coronavirus/"
"Kita Forscherhaus-Zwerge",8.66996,52.11788,c(8.66996, 52.11788, 0),"https://www.westfalen-blatt.de/OWL/Kreis-Herford/Herford/4254915-Erzieherin-infiziert-22-Kinder-und-vier-weitere-Erzieherinnen-moegliche-Kontaktpersonen-Herforder-Kita-Gruppe-wegen-Corona-in-Isolation"
"Kinderkrippe Dom-Pedro-Straße",11.5357052,48.1595669,c(11.5357052, 48.1595669, 0),"https://www.muenchen.de/rathaus/Serviceangebote/familie/kinderbetreuung/corona.html"
"ungenannte Kita Bad Wünnenberg",8.6988832,51.5171339,c(8.6988832, 51.5171339, 0),"https://www.nw.de/lokal/kreis_paderborn/bad_wuennenberg/22847365_Kindergarten-in-Bad-Wuennenberg-nach-positivem-Corona-Test-geschlossen.html"
"Caritas-Kindergarten Nonnenbruch (Heiligenhaus)",6.95991,51.31931,c(6.95991, 51.31931, 0),"https://www.supertipp-online.de/2020/08/22/heiligenhaus-corona-fall-im-caritas-kindergarten-nonnenbruch/"
"Heilpädagogischer Kindergarten",6.9476089,51.1235125,c(6.9476089, 51.1235125, 0),"https://www.langenfeld.de/Startseite/Aktuelles-und-Information/Aktuelles.htm/Aktuelles/Coronavirus-COVID-19-hat-NRW-erreicht.html"
"Kita ""Im Sichler""",8.7341429,50.3572481,c(8.7341429, 50.3572481, 0),"https://www.welt.de/regionales/hessen/article214136346/Wegen-Corona-Kita-in-Bad-Nauheim-bleibt-geschlossen.html"
"Kindergarten Helene Simon",8.71718,50.58633,c(8.71718, 50.58633, 0),"https://awo-giessen.org/nachrichten/keine-weiteren-positiven-corona-testergebnisse-in-kita-helene-simon-344.html"
"Hibernia Kindergarten e.V.",7.1892193,51.5222553,c(7.1892193, 51.5222553, 0),"https://www.lokalkompass.de/herne/c-politik/entwarnung-an-gesamtschule_a1424301"
"Kindertagesstätte Grüner Weg",8.4886376,49.9224007,c(8.4886376, 49.9224007, 0),"https://www.echo-online.de/lokales/kreis-gross-gerau/gross-gerau/corona-fall-in-gross-gerauer-kindertagesstatte_22125913"
"Kindertageseinrichtung Remscheider Str. (Krefeld)",6.57039,51.30941,c(6.57039, 51.30941, 0),"https://rp-online.de/nrw/staedte/krefeld/kita-in-krefeld-einjaehriges-kind-an-corona-erkrankt_aid-52892473"
"Inklusive Kita Wundertüte",7.10938,50.72091,c(7.10938, 50.72091, 0),"https://ga.de/bonn/stadt-bonn/corona-in-bonn-faelle-an-schulen-und-kitas-dutzende-kontaktpersonen_aid-52941567?utm_medium=Social&utm_source=Twitter&Echobox=1598281033"
"Kita Wuppertalstr.",7.0344288,51.0808159,c(7.0344288, 51.0808159, 0),"https://www.radioleverkusen.de/artikel/naechster-coronafall-in-kita-692801.html"
"Städtischer Kindergarten Drachenburg",8.71963,49.03814,c(8.71963, 49.03814, 0),"https://bnn.de/kraichgau/bretten/corona-infektion-in-brettener-kindergarten"
"Kindergarten Don Bosco",8.23821,48.89282,c(8.23821, 48.89282, 0),"https://bnn.de/mittelbaden/rastatt/oetigheim/corona-fall-in-otigheimer-kindergarten-treibt-eltern-um"
"Kita im Volksgarten",6.8060256,51.2075404,c(6.8060256, 51.2075404, 0),"https://corona.duesseldorf.de/news/die-aktuellen-coronazahlen-vom-25-august"
"KiTa Daimlerstraße",6.82002,51.29762,c(6.82002, 51.29762, 0),"https://corona.duesseldorf.de/news/die-aktuellen-coronazahlen-vom-25-august"
"Ev. Kita Kaldenberger Straße",6.8282635,51.1704853,c(6.8282635, 51.1704853, 0),"https://corona.duesseldorf.de/news/die-aktuellen-coronazahlen-vom-25-august"
"Kath.Kindertagesstätte zum Heiligen Kreuz",6.806496,51.2626271,c(6.806496, 51.2626271, 0),"https://corona.duesseldorf.de/news/die-aktuellen-coronazahlen-vom-25-august"
"Arbeiterwohlfahrt Kreisverband Siegen- Wittgenstein/Olpe Kita Am",8.001266,50.9165737,c(8.001266, 50.9165737, 0),"https://www.wp.de/staedte/siegerland/corona-siegen-wittgenstein-10-kitas-und-schulen-betroffen-id230211362.html"
"Ev.Kita Senfkorn",8.3819068,51.0465274,c(8.3819068, 51.0465274, 0),"https://www.wp.de/staedte/siegerland/corona-siegen-wittgenstein-10-kitas-und-schulen-betroffen-id230211362.html"
"Kindergarten Herz Jesu (Wilnsdorf)",8.14414,50.81429,c(8.14414, 50.81429, 0),"https://www.wp.de/staedte/siegerland/corona-siegen-wittgenstein-10-kitas-und-schulen-betroffen-id230211362.html"
"Kita in Wuppertalstraße (Leverkusen)",7.0281693,51.0823369,c(7.0281693, 51.0823369, 0),"https://www.radioleverkusen.de/artikel/naechster-coronafall-in-kita-692801.html"
"Montessori-Kinderhaus Hl. Drei Könige",7.0291906,51.0788239,c(7.0291906, 51.0788239, 0),"https://www.radioleverkusen.de/artikel/naechster-coronafall-in-kita-692801.html"
"Kita Rasselbande",7.1912096,50.7879482,c(7.1912096, 50.7879482, 0),"https://ga.de/region/sieg-und-rhein/sankt-augustin/kita-in-sankt-augustin-nach-corona-fall-geschlossen_aid-52944379"
"DRK Kindertagesstätte",8.5702142,52.1371372,c(8.5702142, 52.1371372, 0),"https://www.westfalen-blatt.de/OWL/Kreis-Herford/Herford/4257686-Engeraner-DRK-Kita-schliesst-eine-Gruppe-24-Kinder-in-Quarantaene-Traumland-Erzieherin-hat-Corona"
"Kinderkrippe Steinrausch (Saarlouis)",6.764378,49.3337602,c(6.764378, 49.3337602, 0),"https://www.saarbruecker-zeitung.de/saarland/saarlouis/saarlouis/stadt-saarlouis-schliesst-steinrausch-krippe-wegen-corona_aid-52959085"
"Evangelische Kindertagesstätte Heerdt",6.7034854,51.2313664,c(6.7034854, 51.2313664, 0),"https://corona.duesseldorf.de/news/die-aktuellen-coronazahlen-vom-26-august"
"Kath. Kindergarten St. Adolfus Caritasverband",6.7759025,51.2388933,c(6.7759025, 51.2388933, 0),"https://corona.duesseldorf.de/news"
"Städtische Kindertagesstätte",6.8113932,51.1994002,c(6.8113932, 51.1994002, 0),"https://corona.duesseldorf.de/news/die-aktuellen-coronazahlen-vom-25-august"
"Evangelische Kindertagesstätte Matthäikirche",6.8241613,51.2307162,c(6.8241613, 51.2307162, 0),"https://corona.duesseldorf.de/news/die-aktuellen-coronazahlen-vom-25-august"
"Kindertagesstätte Haus des Kindes (Limburgerhof)",8.39082,49.41581,c(8.39082, 49.41581, 0),"https://www.rheinpfalz.de/lokal/pfalz-ticker_artikel,-coronaf%C3%A4lle-in-einer-kita-im-kreis-und-zwei-schulen-in-ludwigshafen-_arid,5101989.html"
"AWO Kita ""Urmel""",6.7639826,51.2017676,c(6.7639826, 51.2017676, 0),"https://corona.duesseldorf.de/news/die-coronazahlen-vom-7-august"
"EJF Kita ""Schwanenspiegel""",6.7713371,51.2183429,c(6.7713371, 51.2183429, 0),"https://corona.duesseldorf.de/news/die-coronazahlen-vom-7-august"
"Kita Diakonie Düsseldorf",6.7796,51.21463,c(6.7796, 51.21463, 0),"https://corona.duesseldorf.de/news/die-coronazahlen-vom-7-august"
"Montessori-Kinderhaus Oberkassel e.V.",6.7557985,51.2345553,c(6.7557985, 51.2345553, 0),"https://corona.duesseldorf.de/news/die-coronazahlen-vom-22-august"
"Katholischer Kindergarten St.Cäcilia",6.8754372,51.1626496,c(6.8754372, 51.1626496, 0),"https://corona.duesseldorf.de/news/die-coronazahlen-vom-22-august"
"Kita in der Graf-von-Stauffenberg-Straße",6.9028802,51.1283928,c(6.9028802, 51.1283928, 0),"https://corona.duesseldorf.de/news/die-coronazahlen-vom-22-august"
"Kita Edefanten (Wuppertal)",7.26523,51.28234,c(7.26523, 51.28234, 0),"https://www.wz.de/nrw/wuppertal/mehrere-covid-19-faelle-an-wuppertaler-schulen-und-kitas_aid-53018309"
"Städtische Kindertageseinrichtung Geranienweg",6.91557,51.01632,c(6.91557, 51.01632, 0),"https://www.ksta.de/koeln/corona-in-koeln-kind-in-kita-positiv-getestet---einrichtung-bleibt-vorerst-geschlossen-36349934"
"Kindertagesstätte Nikolaushof",6.4639867,51.1381066,c(6.4639867, 51.1381066, 0),"https://rp-online.de/nrw/staedte/moenchengladbach/corona-in-moenchengladbach-mittwoch-26-august-stadt-schliesst-kita_aid-52976289"
"Städtischer Kindergarten an der Ebbinghäuser Straße",7.1762625,51.5904401,c(7.1762625, 51.5904401, 0),"https://www.24vest.de/recklinghausen/recklinghausen-positiver-corona-test-kita-an-ebbinghaeuser-strasse-geschlossen-90030585.html"
"Kindertagesstätte Villa Käferkinder",6.30693,50.98894,c(6.30693, 50.98894, 0),"https://www.kreis-dueren.de/aktuelles/presse/corona-aktuelles-komplett.php?pm=/aktuelles/presse/2020/Corona_27.8.php"
"Evanvelische Kindertagesstätte Reichenbach",8.6995649,49.7102435,c(8.6995649, 49.7102435, 0),"https://www.morgenweb.de/newsticker_ticker,-neun-neue-corona-infizierte-_tickerid,127960.html"
"Herz-Jesu (Montessori Kinderhaus)",6.8737059,51.1502396,c(6.8737059, 51.1502396, 0),"https://corona.duesseldorf.de/news/die-coronazahlen-vom-22-august"
"Städtische Tageseinrichtungen",6.8991323,51.1349353,c(6.8991323, 51.1349353, 0),"https://corona.duesseldorf.de/news/die-coronazahlen-vom-22-august"
"FRÖBEL-Kindergarten Regenbogen",6.9090392,50.958512,c(6.9090392, 50.958512, 0),"https://www.ksta.de/koeln/quarantaene-corona-faelle-an-zwei-koelner-kitas---zahlen-an-schulen-steigen-weiter-37256222"
"Kita ""Die Kleinen Strolche"" (Siegburg)",7.2290901,50.81154,c(7.2290901, 50.81154, 0),"https://www.msn.com/de-de/nachrichten/panorama/corona-in-rhein-sieg-zwei-kitas-schlie%C3%9Fen-wegen-corona/ar-BB10MzeH"
"Kita ""Rasselbande"" (St. Augustin-Mülldorf)",7.1912096,50.7879482,c(7.1912096, 50.7879482, 0),"https://www.msn.com/de-de/nachrichten/panorama/corona-in-rhein-sieg-zwei-kitas-schlie%C3%9Fen-wegen-corona/ar-BB10MzeH"
"Tagesgruppe der Evangelischen Jugendhilfe Godesheim (Bonn)",7.1355901,50.6819,c(7.1355901, 50.6819, 0),"https://ga.de/bonn/stadt-bonn/corona-in-bonn-faelle-an-schulen-und-kitas-dutzende-kontaktpersonen_aid-52941567"
"Ev. Kindergarten Arche Noah (Werne)",7.6291618,51.6597726,c(7.6291618, 51.6597726, 0),"https://www.ruhrnachrichten.de/werne/corona-virus-in-kita-arche-noah-hat-mit-bayrischer-schlamperei-zu-tun-plus-1546283.html"
"AWO Kindergarten Brausepulver (Kamen)",7.6216159,51.5630086,c(7.6216159, 51.5630086, 0),"https://www.hellwegeranzeiger.de/kamen/kamener-awo-kita-bleibt-nach-corona-fall-geschlossen-plus-1550501.html"
"Städtische Kindertagesstätte Sachsenring (Essen)",7.113904,51.4493732,c(7.113904, 51.4493732, 0),"https://www.radioessen.de/artikel/corona-in-essen-positiver-fall-in-kita-kinder-muessen-in-quarantaene-699169.html"
"F! Kindertagesstätte St. Klaus (Duderstadt)",10.2620861,51.5102651,c(10.2620861, 51.5102651, 0),"https://www.harzkurier.de/region/article230287078/Covid-19-Bestaetigte-Infektionen-in-der-Kita-in-Duderstadt.html"
"FABIDO-Kita Bornstraße (Dortmund)",7.46927,51.52037,c(7.46927, 51.52037, 0),"https://www.radio912.de/artikel/die-zahl-der-neuinfektionen-mit-dem-coronavirus-geht-in-dortmund-leicht-zurueck-603831.html"
"FABIDO-Kita Dürener Str. (Dortmund)",7.47855,51.52559,c(7.47855, 51.52559, 0),"https://www.radio912.de/artikel/die-zahl-der-neuinfektionen-mit-dem-coronavirus-geht-in-dortmund-leicht-zurueck-603831.html"
"Kinderstube Nordstadt-Krokodile (Dortmund)",7.4726224,51.5243423,c(7.4726224, 51.5243423, 0),"https://www.ruhrnachrichten.de/dortmund/kita-in-dortmund-bleibt-nach-corona-verdachtsfall-geschlossen-1547442.html"
"FABIDO-Kita Preußische Str. (Dortmund)",7.4894489,51.5529118,c(7.4894489, 51.5529118, 0),"https://www.ruhrnachrichten.de/dortmund/kita-in-dortmund-ist-wegen-2-corona-verdachtsfaellen-geschlossen-plus-1546200.html"
"Ev. Kindergarten Albert-Schweitzer-Haus (Bad Sobernheim)",7.6521841,49.7907004,c(7.6521841, 49.7907004, 0),"https://nahe-news.de/2020/08/28/schulen-und-kita-betroffen-corona-hot-spot-im-raum-bad-sobernheim-dringender-appell-der-landraetin/"
"Kita Birkenweg (Bischofsheim)",8.3625665,49.9943728,c(8.3625665, 49.9943728, 0),"https://www.echo-online.de/lokales/kreis-gross-gerau/bischofsheim/corona-fall-in-bischofsheimer-kita-birkenweg_22171350"
"Kindergarten Ellenbeek (Wülfrath)",7.0509,51.28467,c(7.0509, 51.28467, 0),"https://www.supertipp-online.de/2020/08/30/corona-virus-nrw-deutschland-lage-kreis-mettmann/"
"Kita ""Unter'm Himmelszelt"" (Heiligenhaus)",6.9442,51.3265,c(6.9442, 51.3265, 0),"https://www.supertipp-online.de/2020/08/30/corona-virus-nrw-deutschland-lage-kreis-mettmann/"
"Kita Rehbachstr. Dudweiler (Saarbrücken)",7.04211,49.28855,c(7.04211, 49.28855, 0),"https://www.sol.de/news/update/News-Update,493539/Dudweiler-Neuweiler-Bildstock-Saarbruecken-Quarantaene-wegen-Corona-Faellen-an-Schulen-und-Kita,493656"
"Kindergarten Ringen „Unter’m Regenbogen“ (Grafschaft-Ringen)",7.0905049,50.5710984,c(7.0905049, 50.5710984, 0),"https://www.blick-aktuell.de/Nachrichten/Kindertagesstaette-in-Grafschaft-Ringen-geschlossen-451215.html"
"Katholischer Kindergarten St.Antonius (Kevelaer)",6.2760062,51.6335529,c(6.2760062, 51.6335529, 0),"https://rp-online.de/nrw/staedte/kevelaer/corona-in-kervenheim-firma-und-kindergarten-geschlossen_aid-52937813"
"Waldkindergarten Wiblingwerde e.V.",7.60766,51.30692,c(7.60766, 51.30692, 0),"https://www.come-on.de/lennetal/nachrodt-wiblingwerde/coronavirus-nachrodt-erzieherin-waldkindergarten-positiv-getestet-13856215.html"
"Kita Sausebraus (Neuenrade)",7.7729086,51.2804928,c(7.7729086, 51.2804928, 0),"https://www.come-on.de/lennetal/neuenrade/kita-sausebraus-geschlossen-13866035.html"
"EV. Kindergarten Sereetz (Ratekau)",10.7324,53.92343,c(10.7324, 53.92343, 0),"https://www.ln-online.de/Lokales/Bad-Schwartau/Sereetz-41-Corona-Tests-nach-Infektion-in-Kita"
"Integrierte Kindertagesstätte (Siegen)",8.0167783,50.8730176,c(8.0167783, 50.8730176, 0),"https://www1.wdr.de/nachrichten/themen/coronavirus/corona-virus-siegen-sauerland-olpe-100.html"
"Kita Leonhardi (Minden)",8.89675,52.278,c(8.89675, 52.278, 0),"https://www.mt.de/lokales/minden/Corona-Fallzahlen-im-Kreis-steigen-weiter-an-Positiver-Fall-in-Mindener-Kita-22830345.html"
"Familienzentrum Städt. Kita Am Holderbusch (Stolberg)",6.2159,50.76696,c(6.2159, 50.76696, 0),"https://www.aachener-zeitung.de/lokales/stolberg/normalbetrieb-im-gymnasium-kita-bleibt-geschlossen_aid-53062487"
"Kindergarten Spatzennest (Bürstadt)",8.4565745,49.6487217,c(8.4565745, 49.6487217, 0),"https://www.morgenweb.de/suedhessen-morgen_artikel,-buerstadt-spatzennest-macht-eine-gruppe-zu-_arid,1679401.html"
"unbenannte Kita in Hof",11.9127814,50.3135391,c(11.9127814, 50.3135391, 0),"https://www.frankenpost.de/region/hof/Coronavirus-Fall-in-Hofer-Kita;art83415,7363312"
"Kita Erpel (Verbandsgemeinde Unkel)",7.23173,50.58637,c(7.23173, 50.58637, 0),"https://www.kreis-neuwied.de/kv_neuwied/Home/Aktuelles/Pressemitteilungen/Coronafall%20in%20Kita%20Erpel/"
"Kindertagesstätte IV „Die Altrheinstromer“",8.3448,49.96976,c(8.3448, 49.96976, 0),"https://www.main-spitze.de/lokales/kreis-gross-gerau/ginsheim-gustavsburg/corona-fall-in-kita-altrheinstromer-in-ginsheim-geschlossen_22164992"
"Ev. Kindergarten u. Familienzentrum ""Die kleinen Strolche""",6.36496,50.93013,c(6.36496, 50.93013, 0),"https://www.radiorur.de/artikel/kita-wegen-corona-dicht-696148.html"
"Kath. Kindergarten St. Peter und Paul",6.7511642,51.3651446,c(6.7511642, 51.3651446, 0),"https://www.nrz.de/thema/coronavirus/corona-quarantaene-diese-schulen-und-kitas-sind-betroffen-id230196782.html"
"Städtische Tageseinrichtung für Kinder",7.0594753,51.5458252,c(7.0594753, 51.5458252, 0),"https://www.nrz.de/thema/coronavirus/corona-quarantaene-diese-schulen-und-kitas-sind-betroffen-id230196782.html"
"Kindertagesstätte Franzstr.,",7.48702,51.34671,c(7.48702, 51.34671, 0),"https://www.nrz.de/thema/coronavirus/corona-quarantaene-diese-schulen-und-kitas-sind-betroffen-id230196782.html"
"AWO Kita Sonnenblume",7.6447611,51.488183,c(7.6447611, 51.488183, 0),"https://www.nrz.de/thema/coronavirus/corona-quarantaene-diese-schulen-und-kitas-sind-betroffen-id230196782.html"
"Evangelischer Kindergarten „Zwergenland“",8.4573216,51.1160752,c(8.4573216, 51.1160752, 0),"https://www.nrz.de/thema/coronavirus/corona-quarantaene-diese-schulen-und-kitas-sind-betroffen-id230196782.html"
"Katholischer Kindergarten St.Paulus",6.69285,51.6,c(6.69285, 51.6, 0),"https://www.nrz.de/thema/coronavirus/corona-quarantaene-diese-schulen-und-kitas-sind-betroffen-id230196782.html"
"Städt. Kindergarten Vierbaum",6.6581825,51.5119454,c(6.6581825, 51.5119454, 0),"https://www.nrz.de/thema/coronavirus/corona-quarantaene-diese-schulen-und-kitas-sind-betroffen-id230196782.html"
"Städt. Tageseinrichtung für Kinder Menschenskinder (Mülheim an der Ruhr)",6.880844,51.432448,c(6.880844, 51.432448, 0),"https://www.radiomuelheim.de/artikel/kita-kind-hat-corona-700904.html"
"AWO-Kita/Familienzentrum ""Bienenkorb"" (Augustdorf)",8.7338,51.90986,c(8.7338, 51.90986, 0),"https://www.radiolippe.de/nachrichten/lippe/detailansicht/corona-positive-tests-in-augustdorfer-kita-und-doerentruper-grundschule.html"
"Evangelische Kindertagesstätte Heerdt (Düsseldorf)",6.7034854,51.2313664,c(6.7034854, 51.2313664, 0),"https://corona.duesseldorf.de/news/die-aktuellen-coronazahlen-vom-26-august"
"Kita Am Hoverkamp (Kaarst)",6.6288012,51.2340281,c(6.6288012, 51.2340281, 0),"https://rp-online.de/nrw/staedte/rhein-kreis/schulen-und-kitas-im-rhein-kreis-neuss-an-welchen-gibt-es-corona-faelle_aid-52997751"
